station,name,lat,lon,elev
44203,Rinchinlhumbe (Mongolia),51.11416667,99.66666667,1582
44207,Hatgal (Mongolia),50.43944444,100.1508333,1666
44210,Nogoonnuur (Mongolia),49.61527778,90.24305556,1474
44211,Tes (Mongolia),50.47833333,93.59944444,800
44212,Ulaangom (Mongolia),49.97138889,92.07777778,939
44213,Baruunturuun (Mongolia),49.65833333,94.40388889,1234
44214,Ulgi (Mongolia),48.97972222,89.93833333,1720
44215,Omno-Gobi (Mongolia),49.10472222,91.72611111,1589
44216,Hunhataoortoo (Mongolia),48.81666667,93.1,1051
44217,Tolbo (Mongolia),48.41666667,90.3,2101
44218,Hovd (Mongolia),47.99583333,91.63222222,1405
44219,Urgamal (Mongolia),48.51666667,94.3,1263
44220,Numrug (Mongolia),48.87055556,96.96166667,1848
44221,Bayan-Uul (Mongolia),49.70027778,96.36305556,1420
44222,Chandagat (Mongolia),49.52222222,97.73444444,1745
44223,Rashaant (Mongolia),49.12111111,101.4563889,1385
44224,Tsetsen Uul (Mongolia),48.76666667,96,1928
44225,Tosontsengel (Mongolia),48.76305556,98.26611111,1713
44229,Tariat (Mongolia),48.15666667,99.87666667,2060
44230,Tarialan (Mongolia),49.60916667,101.9844444,1217
44231,Muren (Mongolia),49.63833333,100.1669444,1291
44232,Hutag (Mongolia),49.39333333,102.7088889,933
44233,Ingettolgoi (Mongolia),49.45555556,103.9775,801
44235,Mogod (Mongolia),48.28,102.98,1439
44236,Erdenet (Mongolia),49.03694444,104.0866667,1300
44237,Erdenemandal (Mongolia),48.52944444,101.3672222,1509
44239,Bulgan (Mongolia),48.81666667,103.5169444,1219
44240,Bata Sumber (Mongolia),48.41694444,106.7169444,630
44241,Baruunkharaa (Mongolia),48.91305556,106.0894444,809
44242,Hadatyn (Mongolia),49.45,107.2,762
44243,Ulygaiin Dugang (Mongolia),49.83333333,107.7333333,883
44244,Darkhan (Mongolia),49.49,105.9397222,918
44245,Dzuunharaa (Mongolia),48.86694444,106.4669444,895
44246,Bayanchandmani (Mongolia),48.2275,106.2852778,1257
44247,Ugtaal (Mongolia),48.25833333,105.4041667,1143
44248,Terelj (Mongolia),47.98861111,107.4566667,1523
44250,Mungunmorit (Mongolia),48.20583333,108.4861111,1429
44252,Jargalant (Mongolia),48.54527778,105.8819444,1007
44253,Zuunkharaa (Mongolia),48.86055556,106.4430556,883
44254,Dadal (Mongolia),49.02194444,111.6116667,994
44255,Onon (Mongolia),49.11416667,112.6580556,895
44256,Dashbalbar (Mongolia),49.55083333,114.4041667,707
44257,Binder (Mongolia),48.61583333,110.5988889,1050
44259,Choibalsan (Mongolia),48.11694444,114.5086111,746
44260,Munkhkhairkhan (Mongolia),47.06527778,91.85305556,2093
44261,Deluun (Mongolia),47.8625,90.69694444,2150
44262,Khukhmorit (Mongolia),47.355,94.52222222,1445
44263,Duchinjil (Mongolia),46.92972222,91.08138889,1933
44264,Bulgan (Mongolia),46.08333333,91.53333333,1190
44265,Baitag (Mongolia),46.09444444,91.55222222,1184
44266,Tonkhil (Mongolia),46.31277778,93.90166667,2221
44267,Must (Mongolia),46.69194444,92.79888889,2028
44268,Bugat (Mongolia),45.56083333,94.36111111,2147
44272,Uliastai (Mongolia),47.72694444,96.8475,1775
44275,Bayanbulag (Mongolia),46.81194444,98.08666667,2257
44277,Altai (Mongolia),46.37611111,96.23861111,2180
44281,Tuvshruulekh (Mongolia),47.38666667,101.9086111,1618
44282,Tsetserleg (Mongolia),47.47138889,101.4627778,1691
44283,Gurvanbulag (Mongolia),47.74472222,103.4808333,1093
44284,Gaiuut (Mongolia),46.70194444,100.1427778,2124
44285,Hujirt (Mongolia),46.89972222,102.7786111,1662
44286,Bat Oldziy Bund (Mongolia),46.96666667,103.8,1358
44287,Bayanhongor (Mongolia),46.17361111,100.71,1858
44288,Arvaiheer (Mongolia),46.25888889,102.7888889,1815
44290,Lung (Mongolia),47.86694444,105.25,1530
44291,Buyant-Ukhaa (Mongolia),47.85,106.75,1272
44292,Ulaan-Baator (Mongolia),47.91833333,106.8477778,1303
44294,Maanit (Mongolia),47.25666667,107.5377778,1425
44296,Baganuur (Mongolia),47.80638889,108.3388889,1375
44297,Delgertsgot (Mongolia),46.11694444,106.3830556,1405
44298,Choir (Mongolia),46.35,108.3744444,1286
44299,Orgil (Mongolia),46.63166667,109.4094444,1273
44302,Bayan-Ovoo (Mongolia),47.78583333,112.1105556,927
44303,Umnudelger (Mongolia),47.89222222,109.8022222,1346
44304,Underkhaan (Mongolia),47.30805556,111.6241667,1033
44305,Baruun-Urt (Mongolia),46.67111111,113.2844444,976
44313,Khalkh-Gol (Mongolia),47.63,118.6219444,687
44314,Matad (Mongolia),46.955,115.2963889,903
44317,Erdenetsagaan (Mongolia),45.90666667,115.3719444,1070
44324,Ajbogd (Mongolia),44.61916667,94.92361111,1425
44325,Bayantoorai (Mongolia),44.92444444,96.75361111,1180
44329,Jinst (Mongolia),44.51555556,99.10527778,2229
44336,Saikhan-Ovoo (Mongolia),45.46111111,103.9,1316
44338,Bogd (Mongolia),44.67388889,102.1752778,1522
44339,Saikhan (Mongolia),44.09583333,103.5366667,1291
44340,Buren (Mongolia),46.9175,105.0452778,1274
44341,Mandalgovi (Mongolia),45.74277778,106.2641667,1393
44344,Bayan-Unjuul (Mongolia),47.04,105.9538889,1213
44345,Gurvansaikhan (Mongolia),45.52833333,107.0447222,1165
44347,Tsogt-Ovoo (Mongolia),44.42305556,105.3166667,1291
44348,Mandakh (Mongolia),44.40138889,108.2491667,1309
44352,Bayandelger (Mongolia),45.73027778,112.355,1108
44354,Sainshand (Mongolia),44.86777778,110.1169444,938
44358,Zamyn-Uud (Mongolia),43.7025,111.9005556,964
44366,Ekhiingol (Mongolia),43.40138889,99.0025,970
44373,Dalanzadgad (Mongolia),43.57694444,104.4180556,1462
44374,Gurvantes (Mongolia),43.38638889,101.0733333,1721
44385,Khanbogd (Mongolia),43.19555556,107.1933333,1109
44386,Khovsgol (Mongolia),43.60361111,109.6352778,995
50136,Mohe (China),52.97055556,122.5302778,438
50353,Huma (China),51.73305556,126.6330556,179
50434,Tulihe (China),50.48305556,121.6830556,737
50468,Aihui (China),50.25,127.45,166
50527,Hailar (China),49.25,119.7,653
50548,Xiao'Ergou (China),49.2,123.7166667,289
50557,Nenjiang (China),49.16666667,125.2330556,243
50564,Sunwu (China),49.43305556,127.3497222,235
50603,Xin Barag Youqi (China),48.67888889,116.81,556
50632,Bugt (China),48.76666667,121.9166667,739
50658,Keshan (China),48.08305556,125.7830556,291
50727,Arxan (China),47.16666667,119.9330556,1028
50745,Qiqihar (China),47.38305556,123.9166667,148
50756,Hailun (China),47.44527778,126.8741667,220
50774,Yichun (China),47.7,128.8330556,264
50788,Fujin (China),47.23305556,131.9830556,65
50844,Tailai (China),46.39972222,123.45,139
50854,Anda (China),46.38305556,125.3166667,150
50888,Baoqing (China),46.31666667,132.1830556,83
50915,Uliastai (China),45.51666667,116.9666667,840
50949,Qian Gorlos (China),45.08305556,124.8666667,136
50953,Harbin (China),45.93305556,126.5666667,117
50963,Tonghe (China),45.96666667,128.7330556,110
50968,Shangzhi (China),45.21666667,127.9666667,191
50978,Jixi (China),45.29972222,130.9166667,234
50983,Hulin (China),45.75,132.8666667,98
51053,Kaba He (China),48.04972222,86.34972222,534
51076,Altay (China),47.73305556,88.08305556,737
51087,Fuyun (China),47.01666667,89.5,827
51133,Tacheng (China),46.73305556,83,535
51156,Hoboksar (China),46.81,85.74888889,1323
51243,Karamay (China),45.61666667,84.84972222,428
51334,Jinghe (China),44.56666667,82.81666667,330
51379,Qitai (China),44.01666667,89.56666667,794
51463,Wu Lu Mu Qi (China),43.78305556,87.65,936
51495,Shisanjianfang (China),43.21666667,91.73305556,732
51542,Bayanbulak (China),43.03305556,84.15,2459
51573,Turpan (China),42.95,89.22944444,37
51644,Kuqa (China),41.71666667,82.95,1100
51656,Korla (China),41.72916667,85.81833333,903
51709,Kashi (China),39.48305556,75.75,1386
51711,Akqi (China),40.93305556,78.45,1986
51716,Bachu (China),39.79972222,78.56666667,1117
51730,Alar (China),40.60638889,81.25638889,1011
51747,Tazhong (China),39,83.66666667,1100
51765,Tikanlik (China),40.63305556,87.7,847
51811,Shache (China),38.43305556,77.26666667,1232
51818,Pishan (China),37.61666667,78.28305556,1376
51828,Hotan (China),37.13305556,79.93305556,1375
51886,Mangnai (China),38.25,90.84972222,2945
52112,Naomaohu (China),43.75,94.98305556,479
52203,Hami (China),42.81666667,93.51666667,739
52323,Mazong Shan (China),41.79972222,97.03305556,1770
52378,Guaizihu (China),41.36666667,102.3666667,960
52436,Yumenzhen (China),40.26666667,97.03305556,1527
52495,Bayan Mod (China),40.75,104.5,1329
52533,Jiuquan (China),39.76666667,98.48305556,1478
52602,Lenghu (China),38.83305556,93.38305556,2734
52652,Zhangye (China),39.08305556,100.2830556,1462
52681,Minqin (China),38.63305556,103.0830556,1367
52713,Da-Qaidam (China),37.85,95.36666667,3174
52737,Delingha (China),37.36666667,97.36666667,2982
52754,Gangca (China),37.33305556,100.1330556,3301
52787,Wushaoling (China),37.2,102.8666667,3044
52818,Golmud (China),36.41666667,94.9,2809
52836,Dulan (China),36.29972222,98.09972222,3192
52866,Xining (China),36.64972222,101.7166667,2434
52908,Wudaoliang (China),35.21666667,93.08305556,4613
52955,Guinan (China),35.58305556,100.75,3123
52983,Yu Zhong (China),35.86666667,104.15,1875
52996,Huajialing (China),35.38305556,105,2450
53068,Erenhot (China),43.64972222,112,966
53083,Naran Bulag (China),44.61666667,114.15,1183
53149,Mandal (China),42.53305556,110.1330556,1223
53192,Abag Qi (China),44.01666667,115.0030556,1147
53231,Hails (China),41.45,106.3830556,1510
53336,Haliut (China),41.56666667,108.5166667,1290
53352,Bailing-Miao (China),41.7,110.4330556,1377
53391,Huade (China),41.89972222,114,1484
53463,Hohhot (China),40.85,111.5666667,1153
53480,Jining (China),41.03305556,113.0666667,1416
53487,Datong (China),40.08305556,113.4166667,1054
53502,Jartai (China),39.78305556,105.75,1033
53513,Linhe (China),40.73305556,107.3666667,1041
53529,Otog Qi (China),39.1,107.9830556,1381
53543,Dongsheng (China),39.83305556,109.9830556,1459
53564,Hequ (China),39.365,111.2116667,1037
53588,Wutai Shan (China),38.95,113.5166667,2210
53593,Yu Xian (China),39.83305556,114.5666667,910
53614,Yinchuan (China),38.46666667,106.2,1112
53646,Yulin (China),38.26666667,109.7830556,1158
53673,Yuanping (China),38.75,112.7,838
53698,Shijiazhuang (China),38.01666667,114.3830556,89
53705,Zhongning (China),37.48305556,105.6830556,1185
53723,Yanchi (China),37.79972222,107.3830556,1349
53764,Lishi (China),37.5,111.0997222,951
53772,Taiyuan (China),37.61666667,112.5830556,777
53787,Yushe (China),37.06666667,112.9830556,1042
53798,Xingtai (China),37.18055556,114.3588889,184
53845,Yan An (China),36.58305556,109.45,1180
53863,Jiexiu (China),37.03305556,111.9166667,750
53898,Anyang (China),36.04972222,114.1330556,195
53915,Pingliang (China),35.53305556,106.6666667,1348
53923,Xifengzhen (China),35.73305556,107.6330556,1423
53959,Yuncheng (China),35.11138889,111.0663889,376
53975,Yangcheng (China),35.48305556,112.4,659
54012,Xi Ujimqin Qi (China),44.58305556,117.5997222,997
54026,Jarud Qi (China),44.56666667,120.9,266
54027,Lindong (China),43.95,119.3166667,588
54049,Changling (China),44.25,123.9666667,190
54094,Mudanjiang (China),44.5,129.6666667,306
54096,Suifenhe (China),44.38305556,131.15,498
54102,Xilin Hot (China),43.95,116.1166667,1004
54115,Linxi (China),43.63305556,118.0330556,825
54135,Tongliao (China),43.65972222,122.3497222,174
54157,Siping (China),43.18305556,124.3330556,165
54161,Changchun (China),43.89972222,125.2166667,238
54186,Dunhua (China),43.36666667,128.1997222,526
54208,Duolun (China),42.18305556,116.4666667,1247
54218,Chifeng (China),42.29972222,118.8330556,669
54226,Bugt (China),42.33305556,120.7,401
54236,Zhangwu (China),42.41666667,122.5330556,84
54259,Qingyuan (China),42.06666667,124.8666667,230
54273,Huadian (China),42.98305556,126.75,264
54292,Yanji (China),42.86666667,129.5,258
54308,Fengning (China),41.2,116.6330556,661
54311,Weichang (China),41.93305556,117.75,844
54324,Chaoyang (China),41.54972222,120.45,176
54337,Jinzhou (China),41.13305556,121.1166667,70
54342,Shenyang (China),41.73305556,123.5166667,49
54346,Benxi (China),41.31666667,123.7830556,183
54374,Linjiang (China),41.79972222,126.8830556,385
54377,Ji'An (China),41.14972222,126.2166667,225
54386,Changbai (China),41.41666667,128.1830556,775
54401,Zhangjiakou (China),40.78305556,114.8830556,726
54405,Huailai (China),40.41666667,115.5,538
54423,Chengde (China),40.96666667,117.9166667,374
54436,Qinglong (China),40.39972222,118.95,228
54471,Yingkou (China),40.66666667,122.1666667,4
54493,Kuandian (China),40.71666667,124.7830556,261
54497,Dandong (China),40.04972222,124.3330556,14
54511,Beijing (China),39.93305556,116.2830556,55
54527,Tianjin (China),39.1,117.1666667,5
54534,Tangshan (China),39.64972222,118.0997222,23
54539,Leting (China),39.43305556,118.9,12
54602,Baoding (China),38.73305556,115.4830556,17
54618,Potou (China),38.08305556,116.5497222,13
54662,Dalian (China),38.89972222,121.6330556,97
54715,Lingxian (China),37.33305556,116.5666667,19
54725,Huimin (China),37.5,117.5330556,12
54751,Chang Dao (China),37.93305556,120.7166667,43
54753,Longkou (China),37.61666667,120.3166667,5
54776,Chengshantou (China),37.39972222,122.6830556,47
54808,Xinxian (China),36.23305556,115.6666667,38
54823,Jinan (China),36.6,117.0497222,169
54826,Tai Shan (China),36.25,117.0997222,1536
54836,Yiyuan (China),36.18305556,118.15,302
54843,Weifang (China),36.76666667,119.1830556,22
54857,Qingdao (China),36.06666667,120.3330556,77
54863,Haiyang (China),36.76666667,121.1830556,64
54909,Dingtao (China),35.08305556,115.5166667,51
54916,Yanzhou (China),35.53388889,116.8425,43
54929,Fezxzan (China),35.25,118,163
54945,Rizhao (China),35.46972222,119.56,64
55228,Shiquanhe (China),32.5,80.08305556,4279
55299,Nagqu (China),31.48305556,92.06666667,4508
55578,Xigaze (China),29.25,88.88305556,3837
55591,Lhasa (China),29.66666667,91.13305556,3650
55664,Tingri (China),28.63305556,87.08305556,4302
55773,Pagri (China),27.73305556,89.08305556,4301
56004,Tuotuohe (China),34.21666667,92.43305556,4535
56018,Zadoi (China),32.89972222,95.29972222,4068
56021,Qumarleb (China),34.13305556,95.78305556,4176
56029,Yushu (China),33,96.96666667,3716
56033,Madoi (China),34.91666667,98.21666667,4273
56046,Darlag (China),33.75,99.65,3968
56065,Henan (China),34.73305556,101.5997222,3500
56079,Ruo'Ergai (China),33.59416667,102.9555556,3514
56080,Hezuo (China),35,102.9,2910
56096,Wudu (China),33.39972222,104.9166667,1079
56116,Dengqen (China),31.41666667,95.59972222,3874
56137,Qamdo (China),31.14972222,97.16666667,3307
56144,Dege (China),31.73305556,98.56666667,3184
56146,Garze (China),31.61666667,100,3394
56152,Sertar (China),32.28305556,100.3330556,3896
56167,Dawu (China),30.96666667,101.1166667,3009
56172,Barkam (China),31.89972222,102.2330556,2666
56182,Songpan (China),32.66666667,103.5997222,2882
56187,Wenjiang (China),30.75,103.8666667,549
56196,Mianyang (China),31.44972222,104.7330556,522
56247,Batang (China),30,99.09972222,2589
56257,Litang (China),29.98972222,100.23,4008
56287,Ya'An (China),29.98305556,103,629
56312,Nyingchi (China),29.56666667,94.46666667,3001
56357,Daocheng (China),29.05,100.2997222,3729
56374,Kangding (China),30.05,101.9666667,2617
56385,Emei Shan (China),29.51666667,103.3330556,3049
56444,Deqen (China),28.44972222,98.88305556,3320
56462,Jiulong (China),29,101.5,2994
56492,Yibin (China),28.76666667,104.5997222,503
56571,Xichang (China),27.89972222,102.2666667,1599
56586,Zhaotong (China),27.33305556,103.75,1950
56651,Lijing (China),26.83305556,100.2166667,2382
56671,Huili (China),26.46,102.3197222,1811
56684,Huize (China),26.39972222,103.25,2110
56691,Weining (China),26.86666667,104.2830556,2236
56739,Tengchong (China),24.98416667,98.50555556,1696
56748,Baoshan (China),25.04416667,99.16166667,1668
56751,Dali (China),25.69972222,100.1830556,1978
56778,Kunming (China),25.01666667,102.6830556,1892
56786,Zhanyi (China),25.58305556,103.8330556,1900
56838,Ruili (China),24,97.84972222,776
56886,Luxi (China),24.53305556,103.7666667,1708
56946,Gengma (China),23.53,99.39,1144
56951,Lincang (China),23.87972222,100.12,1636
56954,Lancang (China),22.56666667,99.93305556,1054
56959,Jinghong (China),22,100.7830556,553
56964,Simao (China),22.81583333,100.9908333,1416
56966,Yuanjiang (China),23.61666667,101.9666667,507
56969,Mengla (China),21.5,101.5830556,633
56977,Jiangcheng (China),22.6,101.8497222,1270
56985,Mengzi (China),23.44416667,103.3277778,1313
57014,Beidao (China),34.56666667,105.8666667,1085
57025,Fengxiang (China),34.51666667,107.3830556,781
57046,Hua Shan (China),34.48305556,110.0830556,2063
57067,Lushi (China),34.08027778,111.0727778,570
57071,Mengjin (China),34.79972222,112.4666667,329
57083,Zhengzhou (China),34.71666667,113.65,111
57127,Hanzhong (China),33.06666667,107.0330556,509
57131,Jinghe (China),34.43305556,108.9666667,411
57178,Nanyang (China),33.1,112.4830556,181
57193,Xihua (China),33.78,114.5797222,53
57237,Wanyuan (China),32.06666667,108.0330556,674
57245,Ankang (China),32.71666667,109.0330556,291
57259,Fangxian (China),32.03305556,110.7666667,435
57265,Laohekou (China),32.43305556,111.7330556,128
57279,Zaoyang (China),32.14972222,112.6666667,127
57290,Zhumadian (China),32.93305556,113.9166667,107
57297,Xinyang (China),32.13305556,114.0497222,115
57306,Langzhong (China),31.58305556,105.9666667,385
57328,Da Xian (China),31.19972222,107.5,311
57348,Fengjie (China),31.01666667,109.5330556,303
57378,Zhongxiang (China),31.19972222,112.6330556,108
57399,Macheng (China),31.13305556,114.95,75
57411,Gaoping (China),30.74555556,106.1316667,347
57426,Liangping (China),30.68305556,107.7997222,455
57447,Enshi (China),30.28305556,109.4666667,458
57461,Yichang (China),30.73305556,111.3666667,257
57476,Jiangling (China),30.35,112.15,33
57494,Wuhan (China),30.6,114.0497222,24
57503,Neijiang (China),29.61666667,105.1166667,349
57516,Chongqing (China),29.58305556,106.4666667,541
57554,Sangzhi (China),29.39972222,110.1666667,322
57584,Yueyang (China),29.38305556,113.0830556,52
57598,Xiushui (China),29.03305556,114.5830556,147
57604,Naxi (China),28.78305556,105.3830556,364
57633,Youyang (China),28.83305556,108.7666667,665
57655,Yuanling (China),28.46666667,110.4,143
57662,Changde (China),29.05,111.6830556,35
57687,Changsha (China),28.11666667,112.7830556,119
57707,Bijie (China),27.3,105.2330556,1511
57712,Huichuan (China),27.73305556,106.95,984
57731,Sinan (China),27.92972222,108.25,575
57745,Zhijiang (China),27.44972222,109.6830556,273
57766,Shaoyang (China),27.18305556,111.45,310
57776,Nanyue (China),27.3,112.7,1279
57793,Yichun (China),27.8,114.3830556,129
57799,Ji'An (China),27.11666667,114.9666667,78
57816,Guiyang (China),26.58305556,106.7330556,1074
57832,Sansui (China),26.96666667,108.6666667,611
57845,Tongdao (China),26.16666667,109.7830556,397
57853,Wugang (China),26.73305556,110.6330556,340
57866,Lingling (China),26.23305556,111.6166667,174
57902,Xingren (China),25.43305556,105.1830556,1379
57916,Luodian (China),25.43305556,106.7666667,441
57922,Dushan (China),25.83305556,107.5497222,1018
57932,Rongjiang (China),25.96666667,108.5330556,287
57957,Guilin (China),25.33305556,110.2997222,166
57972,Chenzhou (China),25.73527778,112.9738889,368
57993,Ganzhou (China),25.86666667,115,134
58027,Xuzhou (China),34.28305556,117.15,42
58040,Ganyu (China),34.85,119.1330556,10
58102,Boxian (China),33.79138889,115.7352778,40
58141,Huaiyin (China),33.63305556,118.9330556,13
58150,Sheyang (China),33.75,120.2997222,3
58203,Fuyang (China),32.86666667,115.7330556,33
58208,Gushi (China),32.25,115.6297222,37
58221,Bengbu (China),32.85,117.2997222,28
58238,Nanjing (China),31.93305556,118.9,32
58251,Dongtai (China),32.85,120.2830556,5
58265,Lusi (China),32.08305556,121.5330556,4
58314,Huoshan (China),31.39972222,116.3330556,68
58321,Hefei (China),31.94972222,117.0497222,50
58338,Wuhuxian (China),31.11666667,118.5830556,18
58345,Liyang (China),31.43305556,119.4830556,8
58362,Shanghai (China),31.41666667,121.45,8
58424,Anqing (China),30.61666667,116.9666667,62
58437,Huang Shan (China),30.13305556,118.15,1836
58457,Hangzhou (China),30.23305556,120.1666667,43
58472,Shengsi (China),30.73305556,122.45,81
58477,Dinghai (China),30.03305556,122.1166667,37
58506,Lu Shan (China),29.58305556,115.9830556,1165
58527,Jingdezhen (China),29.31194444,117.1683333,94
58543,Chun An (China),29.61666667,119.0166667,172
58556,Shengxian (China),29.6,120.8166667,108
58569,Shipu (China),29.19972222,121.95,127
58606,Nanchang (China),28.6,115.9166667,50
58633,Qu Xian (China),28.96666667,118.8666667,71
58646,Lishui (China),28.39416667,119.8541667,145
58652,Xianju (China),28.86666667,120.7166667,83
58666,Dachen Dao (China),28.44972222,121.8830556,84
58715,Nancheng (China),27.58305556,116.65,82
58725,Shaowu (China),27.33305556,117.4666667,219
58730,Wuyishan (China),27.76666667,118.0330556,221
58731,Pucheng (China),27.91666667,118.5330556,275
58752,Ruian (China),27.78305556,120.65,38
58754,Fuding (China),27.33305556,120.2,38
58813,Guangchang (China),26.83305556,116.2997222,166
58834,Nanping (China),26.63305556,118.15,128
58847,Fuzhou (China),26.08305556,119.2830556,85
58911,Changting (China),25.85,116.3666667,311
58921,Yong'An (China),25.94972222,117.37,258
58926,Zhang Ping (China),25.27194444,117.4280556,239
58931,Jiuxian Shan (China),25.71666667,118.0997222,1651
58944,Pingtan (China),25.51666667,119.7830556,31
59007,Guangnan (China),24.06666667,105.0666667,1251
59023,Hechi (China),24.69972222,108.0330556,214
59046,Liuzhou (China),24.36666667,109.4666667,306
59058,Mengshan (China),24.19972222,110.5166667,145
59072,Lian Xian (China),24.8,112.3666667,98
59082,Shaoguan (China),24.66666667,113.5997222,122
59087,Fogang (China),23.88305556,113.5166667,68
59096,Lianping (China),24.38305556,114.4830556,284
59102,Xunwu (China),24.94972222,115.65,299
59117,Mei Xian (China),24.28305556,116.0666667,116
59134,Xiamen (China),24.48305556,118.0830556,139
59209,Napo (China),23.39972222,105.8166667,856
59211,Baise (China),23.89972222,106.5997222,242
59254,Guiping (China),23.33305556,110.0166667,130
59265,Wuzhou (China),23.48305556,111.2997222,120
59278,Gaoyao (China),23.05,112.4666667,12
59287,Guangzhou (China),23.21666667,113.4830556,71
59293,Heyuan (China),23.78,114.7697222,115
59316,Shantou (China),23.39972222,116.6830556,3
59417,Longzhou (China),22.36666667,106.75,129
59431,Nanning (China),22.78305556,108.5497222,152
59456,Xinyi (China),22.35,110.9330556,84
59493,Shenzhen (China),22.55,114.0997222,18
59501,Shanwei (China),22.78305556,115.3666667,5
59632,Qinzhou (China),21.98,108.5997222,49
59644,Beihai (China),21.4475,109.1833333,10
59658,Zhanjiang (China),21.14972222,110.2997222,50
59663,Yangjiang (China),21.83305556,111.9666667,22
59673,Shangchuan Dao (China),21.73305556,112.7666667,18
59758,Haikou (China),20,110.25,64
59792,Dongsha Dao (China),20.66666667,116.7166667,6
59838,Dongfang (China),19.1,108.6166667,8
59845,Danxian (China),19.51666667,109.5830556,169
59855,Qionghai (China),19.21666667,110.4830556,23
59948,Sanya (China),18.21666667,109.5830556,420
59981,Xisha Dao (China),16.83305556,112.3330556,5
59985,Sanhu Dao (China),16.53305556,111.6166667,5
